{"version": 0.6, "generator": "Overpass API 0.7.62.5 1bd436f1", "osm3s": {"timestamp_osm_base": "2025-05-16T03:53:52Z", "copyright": "The data included in this document is from www.openstreetmap.org. The data is made available under ODbL."}, "elements": [{"type": "node", "id": 436256921, "lat": 37.6701804, "lon": 127.1072968}, {"type": "node", "id": 436256948, "lat": 37.6752069, "lon": 127.0899263}, {"type": "node", "id": 436257479, "lat": 37.674891, "lon": 127.0896368}, {"type": "node", "id": 436257507, "lat": 37.6698352, "lon": 127.1071268}, {"type": "node", "id": 3694581093, "lat": 37.6756354, "lon": 127.0901373}, {"type": "node", "id": 4634419657, "lat": 37.6749497, "lon": 127.0877769}, {"type": "node", "id": 4634419658, "lat": 37.6752593, "lon": 127.0886039}, {"type": "node", "id": 4634419662, "lat": 37.6751316, "lon": 127.0875307}, {"type": "node", "id": 4634419667, "lat": 37.6755055, "lon": 127.0885548}, {"type": "node", "id": 4634419669, "lat": 37.6797588, "lon": 127.1074703}, {"type": "node", "id": 4634419670, "lat": 37.6800635, "lon": 127.1076225}, {"type": "node", "id": 7878144349, "lat": 37.6794844, "lon": 127.1062981}, {"type": "node", "id": 10226682893, "lat": 37.6757596, "lon": 127.0895184}, {"type": "node", "id": 10226682894, "lat": 37.6764773, "lon": 127.092539}, {"type": "node", "id": 10226682896, "lat": 37.677939, "lon": 127.0998307}, {"type": "node", "id": 11097562945, "lat": 37.6767973, "lon": 127.0938851}, {"type": "node", "id": 11097562946, "lat": 37.6765657, "lon": 127.094052}, {"type": "way", "id": 52873343, "nodes": [436257479, 436257507], "tags": {"alt_name:de": "Erste Ringautobahn in der Metropolregion Hauptstadt", "alt_name:en": "Capital Region First Ring Expressway", "highway": "motorway", "lanes": "4", "layer": "-1", "name": "\uc218\ub3c4\uad8c\uc81c1\uc21c\ud658\uace0\uc18d\ub3c4\ub85c", "name:de": "Expressway 100", "name:el": "\u0391\u03c5\u03c4\u03bf\u03ba\u03b9\u03bd\u03b7\u03c4\u03cc\u03b4\u03c1\u03bf\u03bc\u03bf\u03c2 \u03a3\u03bf\u03cd\u03bd\u03c4\u03bf\u03ba\u03bf\u03c5\u03bf\u03bd \u03a4\u03b6\u03b5 1(\u03b9\u03bb) \u03a3\u03bf\u03cd\u03bd\u03c7\u03bf\u03c5\u03b1\u03bd", "name:en": "Sudogwon Je1sunhwan Expressway", "name:ja": "\u9996\u90fd\u570f\u7b2c1\u5faa\u74b0\u9ad8\u901f\u9053\u8def", "name:ko": "\uc218\ub3c4\uad8c\uc81c1\uc21c\ud658\uace0\uc18d\ub3c4\ub85c", "name:ko-Hani": "\u9996\u90fd\u5708\u7b2c\u4e00\u5faa\u74b0\u9ad8\u901f\u9053\u8def", "name:ko-Latn": "Sudogwonjeilsunhwangosokdoro", "name:nl": "Capital Region First Ring Expressway", "name:vi": "\u0110\u01b0\u1eddng cao t\u1ed1c v\u00e0nh \u0111ai 1 v\u00f9ng th\u1ee7 \u0111\u00f4 Seoul", "name:zh": "\u9996\u90fd\u5708\u4e00\u74b0\u9ad8\u901f\u516c\u8def", "name:zh-Hans": "\u9996\u90fd\u5708\u4e00\u73af\u9ad8\u901f\u516c\u8def", "name:zh-Hant": "\u9996\u90fd\u5708\u4e00\u74b0\u9ad8\u901f\u516c\u8def", "old_name": "\uc11c\uc6b8\uc678\uacfd\uc21c\ud658\uace0\uc18d\ub3c4\ub85c", "old_name:en": "Seoul Ring Expressway", "old_name:ko": "\uc11c\uc6b8\uc678\uacfd\uc21c\ud658\uace0\uc18d\ub3c4\ub85c", "oneway": "yes", "ref": "100", "source": "NTIC", "toll": "yes", "tunnel": "yes", "tunnel:name": "\ubd88\uc554\uc0b0\ud130\ub110", "wikidata": "Q482928", "wikipedia": "ko:\uc218\ub3c4\uad8c\uc81c1\uc21c\ud658\uace0\uc18d\ub3c4\ub85c"}}, {"type": "way", "id": 52873357, "nodes": [436256921, 436256948], "tags": {"alt_name:de": "Erste Ringautobahn in der Metropolregion Hauptstadt", "alt_name:en": "Capital Region First Ring Expressway", "highway": "motorway", "lanes": "4", "layer": "-1", "name": "\uc218\ub3c4\uad8c\uc81c1\uc21c\ud658\uace0\uc18d\ub3c4\ub85c", "name:de": "Expressway 100", "name:el": "\u0391\u03c5\u03c4\u03bf\u03ba\u03b9\u03bd\u03b7\u03c4\u03cc\u03b4\u03c1\u03bf\u03bc\u03bf\u03c2 \u03a3\u03bf\u03cd\u03bd\u03c4\u03bf\u03ba\u03bf\u03c5\u03bf\u03bd \u03a4\u03b6\u03b5 1(\u03b9\u03bb) \u03a3\u03bf\u03cd\u03bd\u03c7\u03bf\u03c5\u03b1\u03bd", "name:en": "Sudogwon Je1sunhwan Expressway", "name:ja": "\u9996\u90fd\u570f\u7b2c1\u5faa\u74b0\u9ad8\u901f\u9053\u8def", "name:ko": "\uc218\ub3c4\uad8c\uc81c1\uc21c\ud658\uace0\uc18d\ub3c4\ub85c", "name:ko-Hani": "\u9996\u90fd\u5708\u7b2c\u4e00\u5faa\u74b0\u9ad8\u901f\u9053\u8def", "name:ko-Latn": "Sudogwonjeilsunhwangosokdoro", "name:nl": "Capital Region First Ring Expressway", "name:vi": "\u0110\u01b0\u1eddng cao t\u1ed1c v\u00e0nh \u0111ai 1 v\u00f9ng th\u1ee7 \u0111\u00f4 Seoul", "name:zh": "\u9996\u90fd\u5708\u4e00\u74b0\u9ad8\u901f\u516c\u8def", "name:zh-Hans": "\u9996\u90fd\u5708\u4e00\u73af\u9ad8\u901f\u516c\u8def", "name:zh-Hant": "\u9996\u90fd\u5708\u4e00\u74b0\u9ad8\u901f\u516c\u8def", "old_name": "\uc11c\uc6b8\uc678\uacfd\uc21c\ud658\uace0\uc18d\ub3c4\ub85c", "old_name:en": "Seoul Ring Expressway", "old_name:ko": "\uc11c\uc6b8\uc678\uacfd\uc21c\ud658\uace0\uc18d\ub3c4\ub85c", "oneway": "yes", "ref": "100", "source": "NTIC", "toll": "yes", "tunnel": "yes", "tunnel:name": "\ubd88\uc554\uc0b0\ud130\ub110", "wikidata": "Q482928", "wikipedia": "ko:\uc218\ub3c4\uad8c\uc81c1\uc21c\ud658\uace0\uc18d\ub3c4\ub85c"}}, {"type": "way", "id": 469023816, "nodes": [11097562946, 10226682896, 7878144349, 4634419669], "tags": {"expressway": "yes", "highway": "trunk", "layer": "-1", "name": "\ub355\ub0b4\ub85c", "name:en": "Deongnae-ro", "name:ko": "\ub355\ub0b4\ub85c", "oneway": "yes", "ref": "18", "tunnel": "yes", "tunnel:name": "\ub355\ub989\ud130\ub110", "tunnel:name:en": "Deongneung Tunnel", "tunnel:name:ko": "\ub355\ub989\ud130\ub110"}}, {"type": "way", "id": 469023817, "nodes": [4634419670, 11097562945], "tags": {"expressway": "yes", "highway": "trunk", "layer": "-1", "name": "\ub355\ub0b4\ub85c", "name:en": "Deongnae-ro", "name:ko": "\ub355\ub0b4\ub85c", "oneway": "yes", "ref": "18", "tunnel": "yes", "tunnel:name": "\ub355\ub989\ud130\ub110", "tunnel:name:en": "Deongneung Tunnel", "tunnel:name:ko": "\ub355\ub989\ud130\ub110"}}, {"type": "way", "id": 1195664116, "nodes": [11097562945, 10226682894, 10226682893, 4634419667, 4634419662], "tags": {"expressway": "yes", "highway": "trunk", "layer": "-1", "name": "\ub355\ub0b4\ub85c", "name:en": "Deongnae-ro", "name:ko": "\ub355\ub0b4\ub85c", "oneway": "yes", "tunnel": "yes", "tunnel:name": "\ub355\ub989\ud130\ub110", "tunnel:name:en": "Deongneung Tunnel", "tunnel:name:ko": "\ub355\ub989\ud130\ub110"}}, {"type": "way", "id": 1195664117, "nodes": [4634419657, 4634419658, 3694581093, 11097562946], "tags": {"expressway": "yes", "highway": "trunk", "layer": "-1", "name": "\ub355\ub0b4\ub85c", "name:en": "Deongnae-ro", "name:ko": "\ub355\ub0b4\ub85c", "oneway": "yes", "tunnel": "yes", "tunnel:name": "\ub355\ub989\ud130\ub110", "tunnel:name:en": "Deongneung Tunnel", "tunnel:name:ko": "\ub355\ub989\ud130\ub110"}}]}