{"version": 0.6, "generator": "Overpass API 0.7.62.5 1bd436f1", "osm3s": {"timestamp_osm_base": "2025-05-16T03:55:47Z", "copyright": "The data included in this document is from www.openstreetmap.org. The data is made available under ODbL."}, "elements": [{"type": "node", "id": 436256985, "lat": 37.6774488, "lon": 127.085043}, {"type": "node", "id": 436256997, "lat": 37.6920393, "lon": 127.0576412}, {"type": "node", "id": 436257458, "lat": 37.6770995, "lon": 127.0849321}, {"type": "node", "id": 670247118, "lat": 37.6916512, "lon": 127.057493}, {"type": "node", "id": 3635012682, "lat": 37.6745081, "lon": 127.0610072}, {"type": "node", "id": 3635012684, "lat": 37.6745344, "lon": 127.0608214}, {"type": "node", "id": 3635012687, "lat": 37.6745446, "lon": 127.0607124}, {"type": "node", "id": 3635012691, "lat": 37.6745455, "lon": 127.0606014}, {"type": "node", "id": 3635012692, "lat": 37.6746422, "lon": 127.0618869}, {"type": "node", "id": 3635023693, "lat": 37.6745285, "lon": 127.0604148}, {"type": "node", "id": 3635023695, "lat": 37.6744664, "lon": 127.0617001}, {"type": "node", "id": 3635023698, "lat": 37.6744344, "lon": 127.0616164}, {"type": "node", "id": 3635023701, "lat": 37.674421, "lon": 127.0615235}, {"type": "node", "id": 3635023704, "lat": 37.6744273, "lon": 127.0614094}, {"type": "node", "id": 3635023706, "lat": 37.6744621, "lon": 127.0612256}, {"type": "node", "id": 3840097683, "lat": 37.6744919, "lon": 127.0601502}, {"type": "node", "id": 3841598085, "lat": 37.6731112, "lon": 127.0782951}, {"type": "node", "id": 3841598086, "lat": 37.6733702, "lon": 127.0784471}, {"type": "node", "id": 3841598087, "lat": 37.6736157, "lon": 127.078429}, {"type": "node", "id": 3841598088, "lat": 37.6737683, "lon": 127.0783555}, {"type": "node", "id": 3841598089, "lat": 37.6738793, "lon": 127.0781667}, {"type": "node", "id": 3841598090, "lat": 37.6739718, "lon": 127.0780464}, {"type": "node", "id": 3841598091, "lat": 37.6740054, "lon": 127.0779119}, {"type": "node", "id": 3841598092, "lat": 37.674039, "lon": 127.0777881}, {"type": "node", "id": 3841598093, "lat": 37.6741118, "lon": 127.0776642}, {"type": "node", "id": 4689690579, "lat": 37.674459, "lon": 127.061242}, {"type": "node", "id": 8499656190, "lat": 37.6745098, "lon": 127.060293}, {"type": "node", "id": 12560947233, "lat": 37.6743292, "lon": 127.0772642}, {"type": "way", "id": 52873344, "nodes": [670247118, 436257458], "tags": {"alt_name:de": "Erste Ringautobahn in der Metropolregion Hauptstadt", "alt_name:en": "Capital Region First Ring Expressway", "highway": "motorway", "lanes": "4", "layer": "-1", "name": "\uc218\ub3c4\uad8c\uc81c1\uc21c\ud658\uace0\uc18d\ub3c4\ub85c", "name:de": "Expressway 100", "name:el": "\u0391\u03c5\u03c4\u03bf\u03ba\u03b9\u03bd\u03b7\u03c4\u03cc\u03b4\u03c1\u03bf\u03bc\u03bf\u03c2 \u03a3\u03bf\u03cd\u03bd\u03c4\u03bf\u03ba\u03bf\u03c5\u03bf\u03bd \u03a4\u03b6\u03b5 1(\u03b9\u03bb) \u03a3\u03bf\u03cd\u03bd\u03c7\u03bf\u03c5\u03b1\u03bd", "name:en": "Sudogwon Je1sunhwan Expressway", "name:ja": "\u9996\u90fd\u570f\u7b2c1\u5faa\u74b0\u9ad8\u901f\u9053\u8def", "name:ko": "\uc218\ub3c4\uad8c\uc81c1\uc21c\ud658\uace0\uc18d\ub3c4\ub85c", "name:ko-Hani": "\u9996\u90fd\u5708\u7b2c\u4e00\u5faa\u74b0\u9ad8\u901f\u9053\u8def", "name:ko-Latn": "Sudogwonjeilsunhwangosokdoro", "name:nl": "Capital Region First Ring Expressway", "name:vi": "\u0110\u01b0\u1eddng cao t\u1ed1c v\u00e0nh \u0111ai 1 v\u00f9ng th\u1ee7 \u0111\u00f4 Seoul", "name:zh": "\u9996\u90fd\u5708\u4e00\u74b0\u9ad8\u901f\u516c\u8def", "name:zh-Hans": "\u9996\u90fd\u5708\u4e00\u73af\u9ad8\u901f\u516c\u8def", "name:zh-Hant": "\u9996\u90fd\u5708\u4e00\u74b0\u9ad8\u901f\u516c\u8def", "old_name": "\uc11c\uc6b8\uc678\uacfd\uc21c\ud658\uace0\uc18d\ub3c4\ub85c", "old_name:en": "Seoul Ring Expressway", "old_name:ko": "\uc11c\uc6b8\uc678\uacfd\uc21c\ud658\uace0\uc18d\ub3c4\ub85c", "oneway": "yes", "ref": "100", "source": "NTIC", "toll": "yes", "tunnel": "yes", "tunnel:name": "\uc218\ub77d\uc0b0\ud130\ub110", "wikidata": "Q482928", "wikipedia": "ko:\uc218\ub3c4\uad8c\uc81c1\uc21c\ud658\uace0\uc18d\ub3c4\ub85c"}}, {"type": "way", "id": 52873345, "nodes": [436256985, 436256997], "tags": {"alt_name:de": "Erste Ringautobahn in der Metropolregion Hauptstadt", "alt_name:en": "Capital Region First Ring Expressway", "highway": "motorway", "lanes": "4", "layer": "-1", "name": "\uc218\ub3c4\uad8c\uc81c1\uc21c\ud658\uace0\uc18d\ub3c4\ub85c", "name:de": "Expressway 100", "name:el": "\u0391\u03c5\u03c4\u03bf\u03ba\u03b9\u03bd\u03b7\u03c4\u03cc\u03b4\u03c1\u03bf\u03bc\u03bf\u03c2 \u03a3\u03bf\u03cd\u03bd\u03c4\u03bf\u03ba\u03bf\u03c5\u03bf\u03bd \u03a4\u03b6\u03b5 1(\u03b9\u03bb) \u03a3\u03bf\u03cd\u03bd\u03c7\u03bf\u03c5\u03b1\u03bd", "name:en": "Sudogwon Je1sunhwan Expressway", "name:ja": "\u9996\u90fd\u570f\u7b2c1\u5faa\u74b0\u9ad8\u901f\u9053\u8def", "name:ko": "\uc218\ub3c4\uad8c\uc81c1\uc21c\ud658\uace0\uc18d\ub3c4\ub85c", "name:ko-Hani": "\u9996\u90fd\u5708\u7b2c\u4e00\u5faa\u74b0\u9ad8\u901f\u9053\u8def", "name:ko-Latn": "Sudogwonjeilsunhwangosokdoro", "name:nl": "Capital Region First Ring Expressway", "name:vi": "\u0110\u01b0\u1eddng cao t\u1ed1c v\u00e0nh \u0111ai 1 v\u00f9ng th\u1ee7 \u0111\u00f4 Seoul", "name:zh": "\u9996\u90fd\u5708\u4e00\u74b0\u9ad8\u901f\u516c\u8def", "name:zh-Hans": "\u9996\u90fd\u5708\u4e00\u73af\u9ad8\u901f\u516c\u8def", "name:zh-Hant": "\u9996\u90fd\u5708\u4e00\u74b0\u9ad8\u901f\u516c\u8def", "old_name": "\uc11c\uc6b8\uc678\uacfd\uc21c\ud658\uace0\uc18d\ub3c4\ub85c", "old_name:en": "Seoul Ring Expressway", "old_name:ko": "\uc11c\uc6b8\uc678\uacfd\uc21c\ud658\uace0\uc18d\ub3c4\ub85c", "oneway": "yes", "ref": "100", "source": "NTIC", "toll": "yes", "tunnel": "yes", "tunnel:name": "\uc218\ub77d\uc0b0\ud130\ub110", "wikidata": "Q482928", "wikipedia": "ko:\uc218\ub3c4\uad8c\uc81c1\uc21c\ud658\uace0\uc18d\ub3c4\ub85c"}}, {"type": "way", "id": 380855803, "nodes": [3841598085, 3841598086, 3841598087, 3841598088, 3841598089, 3841598090, 3841598091, 3841598092, 3841598093, 12560947233], "tags": {"highway": "residential", "name": "\uc0c1\uacc4\ub85c35\uae38", "name:en": "Sanggye-ro 35-gil", "name:ko": "\uc0c1\uacc4\ub85c35\uae38"}}, {"type": "way", "id": 520023263, "nodes": [3840097683, 8499656190, 3635023693, 3635012691, 3635012687, 3635012684, 3635012682, 3635023706, 4689690579, 3635023704, 3635023701, 3635023698, 3635023695, 3635012692], "tags": {"highway": "residential", "name": "\ub3d9\uc77c\ub85c242\uae38", "name:en": "Dongil-ro 242-gil", "name:ko": "\ub3d9\uc77c\ub85c242\uae38"}}]}